I_D,YEAR,EQ_PRIMARY,COUNTRY,LOCATION_NAME,LATITUDE,LONGITUDE,TOTAL_DEATHS,TOTAL_INJURIES,TOTAL_HOUSES_DESTROYED,TOTAL_HOUSES_DAMAGED
7745,2008,5.6,KYRGYZSTAN,KYRGYZSTAN:  OSH,40.288,72.985,0,,5385,
7746,2008,5.6,GUATEMALA,"GUATEMALA:  COLOMBA, FLORES, COSTA CUCA",14.129,-91.479,0,,,
7747,2008,5.9,INDONESIA,"INDONESIA: NEW GUINEA: MANOKWARI,",-0.795,134.012,0,6,,22
7748,2008,4.6,ALGERIA,ALGERIA:  ORAN,35.616,-0.57,1,,,
7749,2008,5,BANGLADESH,"INDIA-BANGLADESH:  RANGAMATI, BANGLADESH",22.761,92.333,0,,,
7750,2008,6.1,INDONESIA,INDONESIA:  SUMATRA:  NIAS ISLAND:  GUNUNGSITOLI,1.011,97.442,1,5,,
7764,2008,5.9,CONGO,CONGO:  BUKAVU,-2.296,28.9,38,717,99,815
7765,2008,4.3,INDIA,INDIA:  WEST BENGAL,23.433,87.111,1,50,,
7766,2008,5.1,MEXICO,MEXICO:  BAJA CALIFORNIA,32.456,-115.315,0,,,
7767,2008,4.9,IRAN,IRAN:  NASIRABAD,31.73,51.2,0,10,,70
7768,2008,4.9,RWANDA,RWANDA:  GISENYI,-2.404,28.918,1,109,,5
7769,2008,5,LEBANON,LEBANON-SYRIA:  BAALBEC,33.327,35.305,0,10,,
7870,2008,7.4,INDONESIA,INDONESIA:  SUMATERA:  ACEH PROVINCE,2.768,95.964,3,25,,
7871,2008,6,USA,NEVADA:  WELLS,41.153,-114.867,0,3,,720
7743,2008,6.5,INDONESIA,INDONESIA:  SUMATRA:  PADANG,-2.486,99.972,0,,,
7872,2008,4.8,UK,UNITED KINGDOM:  ENGLAND:  LINCOLNSHIRE,53.403,-0.332,0,1,,
7873,2008,4.3,BRAZIL,BRAZIL:  SOBRAL,-3.7,-40.35,0,,,
7874,2008,4.5,INDIA,INDIA:  GUJARAT,23.33,70.592,0,,,
7875,2008,7.2,CHINA,CHINA:  XINJIANG PROVINCE,35.49,81.467,0,,2200,
7876,2008,5.3,PERU,PERU:  OFF COAST,-12.178,-77.164,0,1,5,
7800,2008,7.3,NEW CALEDONIA,NEW CALEDONIA: LOYALTY ISLANDS,-20.071,168.892,0,,,
8127,2008,6.1,GUATEMALA,GUATEMALA,13.564,-90.599,0,,,8
7823,2008,5.3,USA,ILLINOIS:  WEST SALEM,38.452,-87.886,0,,,
8128,2008,5,USA,NEVADA:  FALLON,39.52,-119.93,0,,,
8138,2008,6.4,VANUATU,VANUATU ISLANDS,-19.941,168.953,0,,,
8129,2008,4.5,IRAN,"IRAN:  LORESTAN, BOROUJERD",33.86,48.59,0,100,,
8130,2008,6.8,JAPAN,JAPAN:  HONSHU:  E COAST,36.158,141.521,0,6,,
7843,2008,7.9,CHINA,CHINA:  SICHUAN PROVINCE,31.002,103.322,87652,374171,5360000,21000000
8122,2008,,BRAZIL,BRAZIL:  ALCANTARAS,-3.91,-40.44,0,,,
7879,2008,5.6,COLOMBIA,"COLOMBIA:  META, QUETAME",4.33,-73.764,6,,,
7881,2008,6,CHINA,CHINA:  SICHUAN PROVINCE,32.57,105.424,8,927,400000,
8123,2008,5.6,COSTA RICA,PANAMA-COSTA RICA,8.423,-82.968,0,,,
8124,2008,5.7,CHINA,CHINA:  SICHUAN PROVINCE,32.71,105.54,0,,20000,
7880,2008,6.3,ICELAND,ICELAND: REYKJAVIK,64.004,-21.012,0,30,,
8125,2008,5.5,ALGERIA,ALGERIA:  ORAN,35.883,-0.658,1,30,,
8126,2008,3.8,INDIA,INDIA:  MANPUR,24.702,84.964,0,2,,
7925,2008,6.3,GREECE,"GREECE:  ACHAIA, ILEIA",37.963,21.525,2,240,1156,
7907,2008,6.9,JAPAN,JAPAN:  HONSHU:  TOKYO,39.03,140.881,13,357,,614
8120,2008,5.5,PERU,"PERU:  CENTRAL:  OXAPAMPA, HUANCABAMBA",-10.368,-75.512,0,45,60,25
8121,2008,5,IRAN,IRAN:  NE:  KATKAN,35.5,58.8,0,,,
8955,2008,7.7,RUSSIA,RUSSIA:  SEA OF OKHOTSK,53.882,152.886,0,,,
8163,2008,6.2,PERU,PERU:  AREQUIPA,-15.986,-71.748,1,,,
7971,2008,6.9,JAPAN,JAPAN:  OFF EAST COAST OF HONSHU ISLAND,37.552,142.214,0,,,
8164,2008,6.8,JAPAN,JAPAN:  HONSHU:  N,39.802,141.464,1,200,,90
8165,2008,5.6,CHINA,CHINA:  SICHUAN PROVINCE,32.747,105.542,1,17,1200,
8166,2008,5.4,USA,CALIFORNIA:  LOS ANGELES,33.953,-117.761,0,8,,
8167,2008,5.7,CHINA,CHINA:  SICHUAN PROVINCE,32.036,104.722,0,231,540,2450
8168,2008,6,CHINA,CHINA:  SICHUAN PROVINCE,32.756,105.494,4,29,,
8169,2008,5.2,VENEZUELA,VENEZUELA:  CARIACO-CUMANA,10.514,-64.171,0,,,50
8170,2008,6,PHILIPPINES,PHILIPPINES:  LUZON:  LEGASPI,12.897,124.319,0,,,
8171,2008,5,CHINA,CHINA:  YUNNAN PROVINCE,25.051,97.919,0,,5,2420
8172,2008,6,CHINA,CHINA:  YUNNAN PROVINCE,25.044,97.684,5,127,,
8173,2008,5.5,NEW ZEALAND,NEW ZEALAND:  NORTH ISLAND,-39.715,176.851,0,,,
8174,2008,6.7,CHINA,CHINA:  TIBET (XIZANG PROVINCE),30.901,83.52,0,,,700
10114,2008,5,ATLANTIC OCEAN,ATLANTIC OCEAN:  SOUTH,-52.533,26.417,0,,,
8175,2008,6.2,RUSSIA,RUSSIA:  LAKE BAYKAL,51.607,104.158,0,,,
8132,2008,5.9,CHINA,CHINA:  SICHUAN PROVINCE,26.272,101.937,43,589,392000,
8176,2008,4.1,TURKEY,TURKEY:  ADIYAMAN,37.507,38.503,0,,,
8185,2008,5.4,INDONESIA,INDONESIA:  SUMATRA:  SOUTHERN,-3.935,103.058,2,,,113
8133,2008,6.1,IRAN,IRAN:  HORMOZGAN PROVINCE,26.743,55.828,7,45,,
8134,2008,6.8,JAPAN,JAPAN:  HOKKAIDO,41.892,143.754,0,,,
8186,2008,5,INDIA,INDIA:  MAHARASHTRA,17.438,73.915,1,20,,1500
8160,2008,6.6,KYRGYZSTAN,KYRGYZSTAN: NURA,39.533,73.824,74,140,,
8161,2008,6.3,CHINA,CHINA:  TIBET (XIZANG PROVINCE),29.807,90.35,9,19,,
8162,2008,5.7,RUSSIA,RUSSIA:  CAUCASUS:  CHECHNYA,43.372,46.254,13,100,,1027
8177,2008,6.4,PAKISTAN,PAKISTAN:  QUETTA,30.639,67.351,166,370,3487,4125
8206,2008,6.4,PAKISTAN,PAKISTAN:  ZIARAT,30.598,67.455,0,1,,
8207,2008,6.3,CHINA,CHINA:  QINGHAI PROVINCE,37.565,95.833,0,3,,
8191,2008,7.3,INDONESIA,INDONESIA:  MINAHASSA PENINSULA,1.271,122.091,6,77,,1000
8192,2008,6.1,PANAMA,"PANAMA:  PASO CANOA, DAVID, PUERTO ARMUELLES",8.267,-82.967,0,,,
8208,2008,4.1,CZECH REPUBLIC,CZECH REPUBLIC:  KARVINA,49.914,18.455,2,3,,
8253,2008,5.4,IRAN,IRAN:  S,26.99,55.8,0,5,,
8254,2008,4.5,CHINA,CHINA:  SICHUAN PROVINCE,32.518,105.395,2,3,,
8255,2008,4.1,ARGENTINA,ARGENTINA:  POTRERILLOS,-32.938,-69.259,0,,,
9834,2008,4.8,CHINA,CHINA:  YUNNAN PROVINCE:  SIMAO,23.97,97.569,0,19,30,5400
8256,2008,4.7,MYANMAR (BURMA),MYANMAR (BURMA),23.97,97.569,0,19,30,5400
8257,2008,5.8,AFGHANISTAN,"AFGHANISTAN; PAKISTAN:  MANSEHRA, SHANGLA",36.401,71.075,0,,,
8204,2009,7.6,INDONESIA,PAPUA NEW GUINEA:  NEAR NORTH COAST,-0.414,132.885,5,250,,840
8211,2009,7.3,INDONESIA,PAPUA NEW GUINEA:  NEAR NORTH COAST,-0.691,133.305,0,,,
8210,2009,6.1,COSTA RICA,COSTA RICA:  LA PAZ,10.165,-84.197,23,100,518,
8250,2009,7.4,RUSSIA,RUSSIA:  KURIL ISLANDS,46.857,155.154,0,,,
8258,2009,4.6,PERU,PERU:  PACCHA,-11.779,-75.626,0,,50,500
8251,2009,7.2,INDONESIA,INDONESIA:  KEPULAUAN TALAUD,3.884,126.397,0,64,,597
8278,2009,5.4,PAKISTAN,PAKISTAN; INDIA:  KASHMIR,34.204,73.899,0,44,,
8279,2009,5.5,CHINA,CHINA:  XINJIANG PROVINCE,40.657,78.692,0,,331,5613
8259,2009,7.6,TONGA,TONGA ISLANDS,-23.046,-174.659,0,,,
8298,2009,4.1,INDIA,INDIA:  CHAIBASA,22.399,85.903,0,5,,
8299,2009,4.4,NICARAGUA,NICARAGUA:  SAN JUAN DEL RIO COCO,13.452,-86.06,0,,3,10
8264,2009,6.3,ITALY,ITALY:  L'AQUILA,42.334,13.334,309,1500,15000,
8277,2009,5.5,ITALY,ITALY:  L'AQUILA,42.275,13.464,1,,,
8317,2009,5.2,INDIA,INDIA:  JAISALMER,27.143,70.749,0,6,,
8318,2009,5.4,AFGHANISTAN,AFGHANISTAN:  NANGARHAR,34.185,70.076,19,51,200,
8379,2009,4.6,SAUDI ARABIA,SAUDI ARABIA: WESTERN,25.212,37.597,0,,,
8380,2009,5.7,SAUDI ARABIA,SAUDI ARABIA: WESTERN,25.292,37.744,0,7,,
8381,2009,4.9,INDIA,INDIA:  KASHMIR,33.198,75.787,0,,,100
8382,2009,5.3,MACEDONIA,BALKANS NW:  MACEDONIA,41.303,22.714,0,,,
8297,2009,7.3,HONDURAS,HONDURAS:  NORTHERN; BELIZE,16.72,-86.236,7,40,135,25
8384,2009,5.7,VANUATU,VANUATU ISLANDS:  TONGOA,-17.026,168.329,0,10,,
8385,2009,6.3,VANUATU,VANUATU ISLANDS:  TONGOA,-17.757,167.949,0,4,,
8383,2009,5.4,KAZAKHSTAN,KAZAKHSTAN:  TEKELI,44.724,78.864,1,,,
10419,2009,6.4,GREECE,GREECE:  CRETE,34.164,25.471,0,,,
8388,2009,6,PANAMA,PANAMA: PANAMA CITY,9.59,-78.966,0,32,,10
8389,2009,5.7,CHINA,CHINA:  YUNNAN PROVINCE:  YAOAN COUNTY,25.632,101.095,0,336,,
8357,2009,7.8,NEW ZEALAND,NEW ZEALAND:  OFF WEST COAST OF SOUTH ISLAND,-45.762,166.562,0,,,
8390,2009,5.8,CHINA,CHINA: TIBET (XIZANG PROVINCE):   GYUNGCAN,31.158,85.902,0,,6,
8492,2009,3.4,CHINA,CHINA:  CHONGQING PROVINCE:  RONGCHANG,29.358,105.438,2,1,440,
8378,2009,7.5,INDIA,INDIA:  ANDAMAN I,14.099,92.888,0,,,
8377,2009,6.4,JAPAN,JAPAN:  HONSHU:  S COAST,34.743,138.264,1,123,,5192
8472,2009,6.7,INDONESIA,INDONESIA:  SUMATRA:  PADANG,-1.479,99.49,0,9,,
8512,2009,6.2,CHINA,CHINA:  QINGHAI PROVINCE,37.696,95.718,0,,,30
8513,2009,5.2,MYANMAR (BURMA),MYANMAR (BURMA);  INDIA:  SIBSAGAR,25.28,95.101,0,,,
8386,2009,7,INDONESIA,INDONESIA:  JAVA,-7.782,107.297,81,1297,,54000
8532,2009,6,GEORGIA,GEORGIA:  NORTHWESTERN,42.66,43.443,0,1,,1000
8387,2009,6.3,VENEZUELA,VENEZUELA:  CARABOBO,10.705,-67.92,0,18,,17
8533,2009,5.7,PHILIPPINES,"PHILIPPINES:  COTABATO, SULTAN KUDARAT",6.513,124.715,0,91,,76
8534,2009,5.7,INDONESIA,INDONESIA:  BALI:  DENPASAR,-9.138,115.593,0,7,,
8392,2009,6.1,BHUTAN,BHUTAN:  TASHIGANG,27.332,91.437,11,,,
8535,2009,3.1,AUSTRALIA,AUSTRALIA:  MORNINGTON,-38.28,145.25,0,,,
8408,2009,8.1,SAMOA,SAMOA ISLANDS,-15.489,-172.095,192,7,,
8409,2009,7.5,INDONESIA,INDONESIA:  SUMATRA:  PADANG,-0.72,99.867,1117,1214,,181665
8552,2009,6.6,INDONESIA,INDONESIA:  SUMATRA:  SOUTHERN:  KERINCI,-2.515,101.501,3,,,
8410,2009,7.6,VANUATU,VANUATU ISLANDS,-13.006,166.51,0,,,
8572,2009,7.8,SOLOMON ISLANDS,SOLOMON ISLANDS:  SANTA CRUZ ISLANDS,-12.517,166.382,0,,,
8573,2009,5.4,ECUADOR,ECUADOR:  TENA,-0.962,-77.817,0,,,
8574,2009,6.1,AFGHANISTAN,AFGHANISTAN:  HINDU KUSH,36.517,70.95,5,,,
8772,2009,5.3,BHUTAN,"BHUTAN:  MONGAR, PEMAGATSEL, TASHIGANG",27.262,91.417,0,,1,116
8431,2009,4.9,CHINA,CHINA:  YUNNAN PROVINCE,25.962,100.825,0,28,1000,30000
8430,2009,5.1,IRAN,IRAN:  BANDAR ABBAS,27.334,56.202,0,269,,
8451,2009,6.6,INDONESIA,INDONESIA:  SUMABAWA:  BIMA,-8.207,118.631,2,200,,
8592,2009,5.4,VENEZUELA,VENEZUELA:  SIQUISIQUE,10.434,-69.715,0,,,
8792,2009,3.5,SOUTH AFRICA,SOUTH AFRICA:  CARLETONVILLE,-26.414,27.494,2,3,,
8793,2009,5.9,MALAWI,MALAWI:  KARONGA,-9.948,33.878,1,15,,3000
8794,2009,5.1,INDIA,INDIA:  MAHARASHTRA:  SATARA,17.109,73.767,0,,,
8795,2009,4.9,JAPAN,JAPAN:  HONSHU:  ITO,34.921,139.261,0,7,,20
8652,2009,6.4,TAIWAN,TAIWAN:  HUALIEN,23.796,121.605,0,14,,
8632,2009,6,MALAWI,MALAWI:  KARONGA,-10.108,33.818,3,250,1111,3565
8812,2009,5.9,MEXICO,MEXICO:  MEXICALI,32.437,-115.165,0,,,
8813,2009,5.2,BHUTAN,BHUTAN:  DAMETSI,27.319,91.51,0,2,,700
8693,2010,5.1,TAJIKISTAN,TAJIKISTAN,38.245,71.467,0,,98,1000
8672,2010,6.6,SOLOMON ISLANDS,SOLOMON ISLANDS,-8.743,157.477,0,,,
8673,2010,7.1,SOLOMON ISLANDS,SOLOMON ISLANDS,-8.799,157.346,0,,16,60
8692,2010,6.8,SOLOMON ISLANDS,SOLOMON ISLANDS,-9.019,157.551,0,,,
8992,2010,5.1,INDONESIA,INDONESIA:  JAVA:  GARUT,-7.907,107.879,1,2,,
8712,2010,6.5,USA,CALIFORNIA:  OFF COAST NORTHERN,40.652,-124.692,0,30,,
8732,2010,7,HAITI,HAITI:  PORT-AU-PRINCE,18.457,-72.533,316000,300000,97294,188383
8993,2010,5.5,VENEZUELA,VENEZUELA:  CARIACO,10.454,-63.475,0,11,,3
8994,2010,5,IRAN,IRAN:  KHUZESTAN:  ARRJAN,32.45,48.3,0,,,150
8995,2010,4.4,CHINA,CHINA:  GUIZHOU PROVINCE,25.558,105.804,7,9,,
8752,2010,4.7,CHINA,CHINA:  SICHUAN PROVINCE: MOXI,30.268,105.668,1,15,200,
9052,2010,4.8,CHINA,CHINA:  YUNNAN PROVINCE,25.523,101.903,0,11,,
9032,2010,7,JAPAN,"JAPAN:  TORI SHIMA, OKINAWA",25.93,128.425,0,2,,
8872,2010,8.8,CHILE,"CHILE:  MAULE, CONCEPCION, TALCAHUANO",-36.122,-72.898,558,12000,,500000
9053,2010,6.3,ARGENTINA,ARGENTINA:  SALTA,-24.872,-65.602,2,2,,
9152,2010,6.3,TAIWAN,TAIWAN:  KAO-HSIUNG,22.918,120.795,0,96,,340
8892,2010,6.1,TURKEY,"TURKEY:  ELAZIG PROVINCE:  OKCULAR, YUKARI DEMIRCI",38.864,39.986,51,100,287,700
8912,2010,6.9,CHILE,CHILE:  RANCAGUA,-34.29,-71.891,0,,,
9372,2010,6.7,INDIA,INDIA: ANDAMAN ISLANDS:  DIGLIPUR,13.667,92.831,0,10,,
8932,2010,7.2,MEXICO,MEXICO:  BAJA CALIFORNIA,32.297,-115.278,2,233,,
8973,2010,7.8,INDONESIA,INDONESIA:  SUMATRA,2.383,97.048,0,,,
8972,2010,6.9,CHINA,CHINA:  QINGHAI PROVINCE:  YUSHU,33.165,96.548,2220,12135,15000,
9012,2010,5.6,AFGHANISTAN,AFGHANISTAN:  SAMANGAN PROVINCE,35.633,67.658,11,70,2000,
9033,2010,5.2,AUSTRALIA,AUSTRALIA:  KALGOORLIE,-30.794,121.406,0,3,,
9512,2010,4.5,INDIA,INDIA:  CHAMOLI,30.099,80.026,0,,,
9513,2010,6.2,PERU,PERU:  TACNA,-18.058,-70.547,0,11,,
9092,2010,7.2,INDONESIA,INDONESIA:  N. SUMATRA: SIMEULUE ISLAND,3.748,96.018,0,,,
9132,2010,5.2,ALGERIA,ALGERIA:  NORTHERN:  BENI YELLMAN,35.9,4.12,2,43,,
9514,2010,5.8,USA TERRITORY,"PUERTO RICO:  LARES, VEGA BAJA",18.4,-67.07,0,,,
9172,2010,4.4,USA TERRITORY,"ANATAHAN REGION, N. MARIANA ISLANDS",16.591,145.682,0,,,
9252,2010,7.5,INDIA,INDIA:  LITTLE NICOBAR ISLAND,7.881,91.936,0,,,
9764,2010,5.8,USA,CALIFORNIA:  OCOTILLO,32.7,-115.921,0,,,
9292,2010,7,INDONESIA,INDONESIA: NEW GUINEA:  IRIAN JAYA: JAPEN,-2.174,136.543,17,,2556,
9765,2010,5.9,INDIA,INDIA:  ANDAMAN ISLANDS:  DIGLIPUR,13.197,93.087,0,,,
9766,2010,5.2,INDIA,INDIA:  TAULI,29.872,80.428,0,,,
9373,2010,5.2,CANADA,"CANADA:  QUEBEC:  VAL-DES-BOIS, GRACEFIELD",45.88,-75.48,0,,,
9767,2010,6.2,MEXICO,MEXICO:  SAN ANDRES HUAXPALTEPEC,16.396,-97.782,1,,,
9412,2010,5.8,IRAN,IRAN:  FARSINAJ,27.022,53.861,1,32,,
9432,2010,7.6,PHILIPPINES,PHILIPPINES:  CELEBES SEA:  MORO GULF,6.486,123.467,0,,,
9769,2010,5.4,IRAN,IRAN:  TORBET-I-HEYDARIYEH,35.217,59.308,0,274,,
9452,2010,7.2,VANUATU,VANUATU ISLANDS,-17.541,168.069,0,,,
9770,2010,7.1,ECUADOR,"ECUADOR:  MANTA, GUAYAQUIL, LOJA",-1.266,-77.306,0,,,
9612,2010,6.9,USA TERRITORY,"GUAM, NORTHERN MARIANA ISLANDS",12.484,141.476,0,,,
9472,2010,5.7,IRAN,IRAN:  DAMGHAN-TORUD,35.49,54.47,3,200,700,
9771,2010,4.9,CHINA,"CHINA:  SICHUAN PROVINCE: NINGANG, ZIAOJIA",27.197,103.005,0,14,,1001
9492,2010,7,NEW ZEALAND,NEW ZEALAND:  CHRISTCHURCH,-43.522,171.83,0,2,,
9772,2010,5,NEW ZEALAND,NEW ZEALAND:  SOUTH ISLAND:  CHRISTCHURCH,-43.57,172.388,0,,,
9773,2010,5.1,NEW ZEALAND,NEW ZEALAND:  NORTH ISLAND:  PORANGAHAU,-40.433,176.818,0,,,
9774,2010,5,NEW ZEALAND,NEW ZEALAND:  SOUTH ISLAND:  CANTERBURY,-43.598,172.69,0,,,
9775,2010,4.8,BANGLADESH,BANGLADESH:  NARAYANGANJ,23.407,90.648,0,,,
9552,2010,5.8,IRAN,IRAN:  SHIRAZ,29.647,51.665,1,3,,
9777,2010,5.2,PAKISTAN,"PAKISTAN:  KHANPUR, HARIPUR",33.869,72.887,1,15,,100
9592,2010,7.8,INDONESIA,INDONESIA:  SUMATRA,-3.487,100.082,431,,700,
9632,2010,5.5,SERBIA,BALKANS NW: SERBIA:  KRALJEVO,43.76,20.673,2,100,1000,5000
9803,2010,4.9,IRAN,IRAN:  DORUD-RAZAN,33.37,48.94,0,104,,
9825,2010,4.7,PAKISTAN,PAKISTAN:  QUETTA,30.178,67.117,0,12,,
9827,2010,5.1,ETHIOPIA,"ETHIOPIA:  JIMA,  HOSA'INA, SHENK'OLA, WENJELA",7.521,37.839,0,,,
9826,2010,3.7,USA,OKLAHOMA:  LUTHER,35.827,-96.772,0,,,
9760,2010,6.5,IRAN,IRAN:  KERMAN,28.412,59.18,7,25,,1800
9759,2010,7.4,JAPAN,JAPAN:  BONIN ISLANDS,26.901,143.698,0,,,
9761,2010,7.3,VANUATU,VANUATU ISLANDS,-19.702,167.947,0,4,,
9828,2010,4.5,NEW ZEALAND,NEW ZEALAND:  CHRISTCHURCH,-43.55,172.647,0,,,20
9762,2011,4.5,IRAN,IRAN:  FARS PROVINCE,30.16,51.62,0,16,,
9811,2011,6.5,VANUATU,VANUATU ISLANDS,-19.157,168.311,0,,,
9763,2011,7.2,PAKISTAN,"PAKISTAN: GARHI KHAIRO, QUETTA, BALOCHISTAN",28.777,63.951,3,,,200
9830,2011,4.8,CHINA,CHINA:  YUNNAN PROVINCE:  PINGYUAN,24.693,97.943,0,1,,700
9831,2011,6.3,MYANMAR (BURMA),MYANMAR (BURMA):  MONYWA,24.618,94.68,1,,,
9776,2011,6.8,CHILE,CHILE:  OFF COAST CENTRAL,-36.474,-73.125,0,,,
9832,2011,3.1,USA,COLORADO:  PAONIA,38.947,-107.497,0,,,
9779,2011,6.1,NEW ZEALAND,"NEW ZEALAND:  CHRISTCHURCH, LYTTELTON",-43.583,172.68,181,1500,100000,
9835,2011,5.5,PHILIPPINES,PHILIPPINES:  MINDANAO,9.457,125.935,0,,,
9797,2011,7.5,JAPAN,JAPAN:  HONSHU:  E COAST,38.435,142.842,0,,,
9836,2011,5.5,CHINA,CHINA:  YUNNAN PROVINCE:  PINGYUAN,24.719,97.969,25,250,1039,12528
9799,2011,9.1,JAPAN,JAPAN:  HONSHU,38.297,142.372,18434,6157,123661,280920
9805,2011,7.9,JAPAN,JAPAN:  NEAR E COAST HONSHU,36.281,141.111,0,,,
9806,2011,7.6,JAPAN,JAPAN:  OFF EAST COAST HONSHU,38.058,144.59,0,,,
9801,2011,6.8,MYANMAR (BURMA),MYANMAR:  TACHILEK,20.687,99.822,75,123,,10104
9848,2011,5.4,NEPAL,"NEPAL-INDIA:  UTTARAKHAND, UTTAR PRADESH",29.698,80.754,0,,,
9804,2011,7.1,JAPAN,JAPAN: NEAR E COAST HONSHU,38.276,141.588,3,132,,
9847,2011,5.1,CHINA,CHINA:  SICHUAN PROVINCE:  LUHUO,31.373,100.757,0,,,
9841,2011,6.6,JAPAN,JAPAN:  HONSHU,37.001,140.401,7,,3,
9864,2011,6.1,INDONESIA,INDONESIA:   SULAWESI:  KENDARI,-4.586,122.771,0,14,,
9821,2011,5.1,SPAIN,SPAIN:  LORCA,37.699,-1.672,10,,,
9833,2011,4.3,TURKEY,TURKEY:  SIMAV,39.12,29.04,2,125,,
9857,2011,5.3,CHINA,CHINA:  XINJIANG PROVINCE:  DABANCHENG,43.015,88.247,0,8,,50
9858,2011,6,NEW ZEALAND,NEW ZEALAND:  SOUTH ISLAND:  CANTERBURY,-43.564,172.743,1,45,100,
9859,2011,5.3,CHINA,CHINA:  YUNNAN PROVINCE:  BAOSHAN,25.075,98.721,0,4,,
9824,2011,7.3,USA,ALASKA: ALEUTIAN ISLANDS: FOX ISLANDS,52.05,-171.836,0,,,
9860,2011,5.3,CHINA,CHINA:  QINGHAI PROVINCE,32.447,95.948,0,,10,
9822,2011,7.6,KERMADEC ISLANDS (NEW ZEALAND),NEW ZEALAND: KERMADEC ISLANDS,-29.539,-176.34,0,,,
9823,2011,7,JAPAN,JAPAN:  HONSHU:  E COAST,38.034,143.264,0,,,
9829,2011,6.1,UZBEKISTAN,"UZBEKISTAN:  FARGONA, VIOLYATI",40.081,71.41,14,86,,
9862,2011,5,CHINA,CHINA: YUNNAN PROVINCE: BAOSHAN,24.932,98.73,0,3,,22823
9872,2011,5.7,CHINA,"CHINA:  XINJIANG PROVINCE:  SOUTHERN, KASHI",39.955,77.028,0,21,,
9838,2011,7.1,VANUATU,VANUATU ISLANDS,-18.365,168.143,0,,,
9837,2011,7,VANUATU,VANUATU ISLANDS,-18.311,168.218,0,,,
9873,2011,5.4,USA,COLORADO:  SEGUNDO,37.063,-104.701,0,,,
9861,2011,5.8,USA,"VIRGINIA:  LOUISA COUNTY, MARYLAND, WASHINGTON D.C.",37.936,-77.933,0,,,
9839,2011,6.8,USA,ALASKA:  ALEUTIAN ISLANDS:  FOX ISLANDS,52.171,-171.708,0,,,
9840,2011,6.7,INDONESIA,INDONESIA:  SUMATRA,2.965,97.893,10,,,
9874,2011,4.3,INDIA,INDIA:  DELHI,28.724,77.189,0,1,,
9842,2011,6.9,INDIA,INDIA:  SIKKIM,27.73,88.155,111,177,,6000
9843,2011,5.6,GUATEMALA,GUATEMALA:  CUILAPA SANTA ROSA,14.186,-90.238,1,,,
9875,2011,5,INDIA,INDIA:  GUJARAT,21.211,70.533,0,34,,3000
9846,2011,7.4,KERMADEC ISLANDS (NEW ZEALAND),KERMADEC ISLANDS,-28.993,-176.238,0,,,
9845,2011,7.1,TURKEY,"TURKEY:  ERCIS, VAN",38.722,43.513,604,2608,5739,4882
9886,2011,6.9,PERU,PERU:  SAN VICENTE DE CANETE,-14.438,-75.966,1,103,134,
9887,2011,3.5,INDIA,INDIA:  SIKKIM,27.449,88.684,2,,,
9888,2011,4,ECUADOR,ECUADOR:  POMASQUI,-0.13,-78.37,0,,,
9849,2011,5.6,CHINA,CHINA:  XINJIANG PROVINCE,43.648,82.437,0,,2453,
9850,2011,5.7,USA,OKLAHOMA:  SPARKS,35.532,-96.765,0,2,14,
9851,2011,5,PHILIPPINES,PHILIPPINES:  MINDANAO:  BUKIDNON PROVINCE,7.904,125.185,0,31,,23
9889,2011,5,USA,"OKLAHOMA:  SPARKS, PRAGUE",35.531,-96.788,0,,,
9852,2011,5.7,TURKEY,TURKEY:  VAN,38.429,43.229,40,,,
9890,2011,5.8,INDIA,INDIA:  ASSAM,24.955,95.236,0,,,
9863,2011,5.1,EL SALVADOR,EL SALVADOR-GUATEMALA,13.297,-87.898,0,,,80
9891,2011,5.3,CHINA,"CHINA:  XINJIANG PROVINCE:  SOUTHERN, KASHI",38.31,76.888,0,,,300
9854,2011,5.3,NEW ZEALAND,NEW ZEALAND:  COOK STRAIT,-41.364,174.315,0,,,
9853,2011,6.4,MEXICO,MEXICO:  GUERRERO,17.844,-99.963,2,5,,70
9855,2011,5.8,NEW ZEALAND,NEW ZEALAND:  SOUTH ISLAND:  CHRISTCHURCH,-43.49,172.8,0,60,,
9856,2011,6.7,RUSSIA,RUSSIA:  KYZYL,51.842,95.911,0,,,
9866,2012,5.3,IRAN,IRAN:  KHORASAN-E-RAZAVI,36.288,58.835,0,238,,
9867,2012,6.4,PERU,PERU:  ICA,-14.168,-75.635,0,119,,
9871,2012,7,VANUATU,VANUATU ISLANDS,-17.827,167.133,0,,,
9870,2012,6.7,PHILIPPINES,PHILIPPINES:  NEGROS ORIENTAL PROVINCE,9.999,123.206,51,112,15000,
9904,2012,5.9,TAIWAN,TAIWAN:  PINGTUNG,22.661,120.891,0,,,
9903,2012,5.2,IRAN,IRAN:  RAVAR,31.428,56.778,0,6,,
9905,2012,5.6,PHILIPPINES,PHILIPPINES:  MASBATE ISLAND,12.354,123.7,0,10,1,
10413,2012,6.7,VANUATU,VANUATU ISLANDS,-19.125,169.613,0,,,
9878,2012,6.9,JAPAN,JAPAN:  HOKKAIDO,40.887,144.944,0,,,
9877,2012,5.8,PHILIPPINES,PHILIPPINES:  SURIGAO,10.037,125.633,0,55,4,
9876,2012,7.4,MEXICO,"MEXICO:  GUERRERO, OAXACA",16.493,-98.231,2,13,800,
9920,2012,7.2,CHILE,"CHILE:  PARRAL, SANTIAGO",-35.2,-72.217,1,14,,
9879,2012,8.6,INDONESIA,INDONESIA:  N SUMATRA:  OFF WEST COAST,2.327,93.063,10,12,,
9880,2012,8.2,INDONESIA,INDONESIA:  N SUMATRA:  OFF WEST COAST,0.802,92.463,0,,,
9885,2012,6.3,VANUATU,VANUATU ISLANDS,-18.972,168.741,0,,,
9884,2012,6.7,CHILE,CHILE:  VALPARAISO,-32.625,-71.365,2,,,
9893,2012,5.4,IRAN,"IRAN:  MOURMOURI, ABDANAN, DEHLORAN",32.747,47.726,0,8,,
9894,2012,5.7,AZERBAIJAN,AZERBAIJAN:  ZAGATALA,41.549,46.789,0,50,3100,
9930,2012,5.4,INDIA,"INDIA:  ASSAM:  KAMRUP, GUWAHATI",26.175,92.889,0,2,,
9931,2012,5.7,TAJIKISTAN,TAJIKISTAN,38.612,70.354,1,,,
9932,2012,6.3,CHILE,CHILE:  ARICA; PERU:  TACNA,-17.678,-69.591,0,,,
9933,2012,4.1,BRAZIL,BRAZIL:  MONTES CLAROS,-16.764,-43.999,0,,,6
9902,2012,6.1,ITALY,ITALY:  EMILIA ROMAGNA:  MIRANDOLA,44.89,11.23,7,50,,
9948,2012,5.1,ITALY,ITALY:  SANT'AGOSTINO,44.831,11.49,0,,,
9906,2012,5.6,BULGARIA,BULGARIA: PERNIK,42.645,22.968,0,,,90
9901,2012,5.9,ITALY,"ITALY:  EMILIA ROMAGNA:  MEDOLLA, MIRANDOLA, CAVEZZO",44.851,11.086,17,350,,
9909,2012,5.8,INDONESIA,INDONESIA:  JAVA,-7.692,106.371,0,2,,23
9921,2012,6.1,TURKEY,TURKEY:  FETHIYE; GREECE:  RHODES,36.42,28.88,0,6,,
9922,2012,5.8,AFGHANISTAN,AFGHANISTAN:  HINDU KUSH,36.023,69.351,75,13,143,593
9949,2012,5.3,TURKEY,TURKEY:  SIRNAK,37.294,42.325,0,23,,25
9919,2012,5.5,CHINA,CHINA:  YUNNAN AND SICHUAN PROVINCES,27.767,100.781,4,394,6768,
9924,2012,6.3,CHINA,CHINA:  XINJIANG PROVINCE,43.433,84.7,0,52,,30000
9950,2012,4.9,CHINA,CHINA:  JIANGSU PROVINCE,32.978,119.593,1,2,,
9951,2012,6.5,INDONESIA,INDONESIA: BANDA ACEH,2.707,96.045,1,,,20
9926,2012,6.4,SOLOMON ISLANDS,SOLOMON ISLANDS: GUADALCANAL,-9.694,159.727,0,,26,
9928,2012,6.5,IRAN,"IRAN:  AHAR, HARIS, VARZAGAN",38.329,46.826,306,3000,,
9929,2012,7.7,RUSSIA,RUSSIA:  SAKHALIN ISLAND,49.8,145.064,0,,,
9938,2012,6.3,INDONESIA,"INDONESIA:  SULAWESI:  SIGI, PARIGI MOUNTONG",-1.315,120.096,6,43,471,1097
9934,2012,7.3,NICARAGUA,NICARAGUA:  OFF THE COAST,12.139,-88.59,0,,,
9935,2012,7.6,PHILIPPINES,"PHILIPPINES:  CAGAYAN DE ORO, TACLOBAN",10.811,126.638,1,1,,
9936,2012,7.6,COSTA RICA,COSTA RICA:  NICOYA,10.085,-85.315,2,20,,
9937,2012,5.6,CHINA,CHINA: YUNNAN PROVINCE:  ZHAOTONG:  YILIANG,27.575,103.983,81,821,37000,133000
9968,2012,5,INDIA,"INDIA:  DEURALA, JAISINGHNAGAR, KOTMA, SARAI, UMARIA",23.739,81.314,0,,,1
9941,2012,7.7,CANADA,CANADA:  QUEEN CHARLOTTE ISLANDS,52.788,-132.101,1,,,
9942,2012,7.3,GUATEMALA,"GUATEMALA:  SAN MARCOS, SAN CRISTOBAL COCHU",13.988,-91.895,48,155,2769,7561
9943,2012,6.8,MYANMAR (BURMA),MYANMAR (BURMA):  SHWEBO,23.005,95.885,26,230,251,
9944,2012,5.1,CHINA,CHINA:  XINJIANG PROVINCE:  RUOQIANG,40.411,90.355,0,,,
9945,2012,5.7,IRAN,IRAN:  KHORASAN PROVINCE,33.506,59.571,8,12,,
9946,2012,7.2,JAPAN,JAPAN:  HONSHU:  MIYAGI PREFECTURE,37.89,143.949,0,11,,
9953,2013,7.5,USA,ALASKA:  SOUTHEASTERN,55.393,-134.652,0,,,
9957,2013,6.1,INDONESIA,INDONESIA:  SUMATERA:  N,4.927,95.907,1,15,,71
9958,2013,7.9,SOLOMON ISLANDS,SOLOMON ISLANDS:  SANTA CRUZ ISLANDS,-10.799,165.114,10,15,588,478
9963,2013,7,SOLOMON ISLANDS,SOLOMON ISLANDS:  SANTA CRUZ ISLANDS,-10.928,166.018,0,,,
9964,2013,7,COLOMBIA,"COLOMBIA:  CAUCA, NARINO, VALLE DEL CAUCA, RISARALDA",1.135,-77.393,0,15,100,1900
9999,2013,4.2,RUSSIA,RUSSIA:  CHELYABINSK (METEOR EXPLOSION),55.15,61.41,0,1000,,4000
9965,2013,4.9,CHINA,CHINA:  YUNNAN PROVINCE:  QIAOJIA,27.226,103.071,0,8,72,949
9966,2013,5.3,PERU,PERU:  S,-15.748,-71.425,0,,,80
9967,2013,5.4,CHINA,CHINA:  YUNNAN PROVINCE,25.98,99.812,0,30,700,2500
10000,2013,5.1,CHINA,CHINA:  XINJIAN PROVINCE:  S,40.119,77.466,0,,864,
9975,2013,6,TAIWAN,"TAIWAN:  NANTOU COUNTY, TAIPEI",23.828,121.215,1,86,,
9974,2013,6.3,IRAN,"IRAN:  BUSHEHR PROVINCE:  SHANBE, KAKI, SENA",28.428,51.593,37,850,,700
10182,2013,5.4,HONDURAS,HONDURAS: ATLANTIDA,15.52,-87.159,0,,12,66
9980,2013,5.8,JAPAN,JAPAN,34.369,134.828,0,24,,
9976,2013,7.7,IRAN,IRAN; PAKISTAN:  MASHKAL,28.033,61.996,40,300,,1000
10035,2013,5.8,JAPAN,JAPAN: MIYAKEJIMA,33.958,139.352,0,3,,
10036,2013,2.1,USA,TEXAS:  WEST,31.817,-97.088,14,200,50,
9977,2013,7.2,RUSSIA,RUSSIA:  KURIL ISLANDS,46.221,150.788,0,,,
9978,2013,6.6,CHINA,CHINA:  SICHUAN PROVINCE:  LONGMEN,30.308,102.888,196,11470,,
9983,2013,5.5,AFGHANISTAN,AFGHANISTAN:  KAMA,34.526,70.22,18,141,,676
9991,2013,5.7,INDIA,"INDIA:  KASHMIR:  DODA, KISHTWAR, RAMBAN",33.061,75.863,3,90,1136,95532
9994,2013,6.1,IRAN,IRAN:  HORMOZGAN: BASHAGARD,26.56,57.77,2,20,,
10037,2013,4.9,ALGERIA,ALGERIA:  ALGIERS,36.703,5.261,0,5,,
9998,2013,8.3,RUSSIA,RUSSIA:  SEVERO KURILSKIYE,54.892,153.221,0,,,
10003,2013,5.7,PHILIPPINES,"PHILIPPINES:  N. COTABATO:  KIMADZIL, KIBUGTONGAN",7.275,124.898,0,33,,164
10002,2013,6.3,TAIWAN,TAIWAN:  JENAI,23.789,121.141,4,21,,
10007,2013,5.3,RUSSIA,RUSSIA:  KEMEROVO,54.263,86.173,0,,,500
10006,2013,5.1,INDONESIA,INDONESIA:  LOMBOK ISLAND,-8.305,116.058,0,50,5370,1700
10005,2013,6.1,INDONESIA,INDONESIA:  BANDA ACEH,4.645,96.665,42,2500,20401,
10038,2013,5.7,INDONESIA,INDONESIA:  JAVA,-8.803,113.002,0,1,124,
10034,2013,4.8,ALGERIA,ALGERIA:  HAMMAM MELOUANE,36.534,3.086,0,11,,
10021,2013,6.5,NEW ZEALAND,NEW ZEALAND:  COOK STRAIT,-41.704,174.337,0,5,,35
10018,2013,6,CHINA,"CHINA:   GANSU:  DINGXI, MIN",34.512,104.262,94,1001,1968,22496
10295,2013,5.2,INDIA,INDIA:  KASHMIR:  KISHTWAR,33.297,75.95,0,2,,
10033,2013,5.5,GREECE,"GREECE:  CENTRAL:   PHTHIOTIS, REGGINI",38.689,22.695,0,,100,
10296,2013,5.7,CHINA,CHINA:  TIBET (XIZANG PROVINCE): QAMDO,30.046,97.957,0,,,
10032,2013,6.5,NEW ZEALAND,"NEW ZEALAND:  WELLINGTON, MARLBOROUGH",-41.731,174.027,0,,,
10029,2013,6.2,MEXICO,"MEXICO:  SAN MARCOS, ACAPULCO",16.878,-99.498,0,1,,
10297,2013,5.2,CHINA,CHINA:  YUNNAN PROVINCE: SHANGRI-LA,28.239,99.328,0,,36,36
10031,2013,5.8,CHINA,CHINA:  YUNNAN PROVINCE:  BENZILAN,28.243,99.35,5,24,600,55500
10030,2013,6.4,GUATEMALA,"GUATEMALA:  COATEPEQUE, QUETZALTENANGO",14.606,-92.121,1,11,3,
10039,2013,7.7,PAKISTAN,"PAKISTAN:  AWARAN, KECH",26.951,65.501,825,619,32638,14118
10040,2013,7.1,PERU,PERU:  AREQUIPA,-16.15,-74.87,0,,,
10043,2013,6.8,PAKISTAN,PAKISTAN: AWARAN,27.183,65.505,22,50,,
10049,2013,6.6,GREECE,GREECE:  CRETE:  CHANIA,35.514,23.252,0,1,,
10048,2013,7.1,PHILIPPINES,"PHILIPPINES:  BOHOL, CEBU, SIQUIJOR IS",9.88,124.117,222,976,,
10050,2013,5.5,INDONESIA,INDONESIA:  BANDA ACEH,5.103,95.971,1,2,,160
10052,2013,7.1,JAPAN,JAPAN:  HONSHU:  E COAST,37.2,144.6,0,1,,
10305,2013,5.2,TAJIKISTAN,TAJIKISTAN:  VAHDAT,38.41,68.89,0,,104,256
10054,2013,7.7,ANTARCTICA,SCOTIA SEA:  SOUTH ORKNEY ISLANDS,-60.274,-46.401,0,,,
10306,2013,5.3,CHINA,CHINA:  JILIN PROVINCE:  SONGYUAN,44.599,124.168,0,,,5300
10056,2013,5.7,IRAN,IRAN:  BORAZJAN,29.275,51.313,8,200,250,
10059,2014,5.3,IRAN,IRAN:  BASTAK,27.15,54.448,1,30,,
10308,2014,5.6,COLOMBIA,COLOMBIA:  SIPI,4.557,-76.644,0,,,121
10068,2014,6.4,USA TERRITORY,PUERTO RICO,19.043,-66.81,0,,,
10067,2014,6.1,NEW ZEALAND,"NEW ZEALAND: WELLINGTON, MANAWATU-WANGANUI",-40.66,175.814,0,,,
10070,2014,6.1,INDONESIA,INDONESIA:  JAVA:  BANYUMAS,-7.986,109.265,0,,1,
10069,2014,6.1,GREECE,GREECE:  KEFALONIA,38.208,20.453,0,6,,
10072,2014,5.3,IRAN,IRAN:  GOHARAN,26.589,57.741,0,,,
10071,2014,6,GREECE,GREECE:  KEFALONIA:  LIXOURION,38.244,20.379,0,16,,
10309,2014,4.1,USA,OKLAHOMA:  GUTHRIE,35.937,-97.271,0,,,
10073,2014,6.9,CHINA,CHINA:  XINJIANG PROVINCE:  YUTIAN,35.905,82.586,0,,67,1001
10074,2014,4.5,AUSTRALIA,AUSTRALIA:  KALGOORLIE,-30.686,121.332,0,,,
10087,2014,6.3,JAPAN,JAPAN:  SOUTHWESTERN,33.684,131.825,0,18,,
10075,2014,6.7,CHILE,CHILE:  IQUIQUE,-19.965,-70.814,0,,,
10082,2014,5.1,USA,"CALIFORNIA:  LA HABRA, BREA, FULLERTON",33.863,-117.835,0,,,20
10079,2014,8.2,CHILE,"CHILE:  NORTHERN:  IQUIQUE, ALTO HOSPICIO",-19.61,-70.769,7,,,2600
10080,2014,7.7,CHILE,CHILE:  NORTHERN:  IQUIQUE,-20.571,-70.493,0,,,
10081,2014,5.4,CHINA,CHINA:  YUNNAN PROVINCE:  XILUODU,28.174,103.619,0,21,75,2700
10083,2014,6.1,NICARAGUA,"NICARAGUA:  NAGAROTE, MANAGUA",12.403,-86.378,2,250,168,2210
10310,2014,7.1,PAPUA NEW GUINEA,PAPUA NEW GUINEA:  BOUGAINVILLE ISLAND,-6.586,155.049,1,,51,
10084,2014,7.6,SOLOMON ISLANDS,SOLOMON ISLANDS,-11.27,162.148,0,,,
10085,2014,7.4,SOLOMON ISLANDS,SOLOMON ISLANDS,-11.463,162.051,0,,,
10086,2014,5.2,NICARAGUA,"NICARAGUA:  MANAGUA, CIUDAD SANDINO",12.151,-86.281,0,,7,
10088,2014,7.2,MEXICO,MEXICO:  GUERRERO; MEXICO CITY,17.397,-100.972,0,,,127
10091,2014,7.5,PAPUA NEW GUINEA,PAPUA NEW GUINEA:  SOLOMON SEA,-6.755,155.024,0,,,
10093,2014,6.1,THAILAND,THAILAND:  CHIANG RAI,19.656,99.67,1,32,20,
10095,2014,6.4,MEXICO,MEXICO:  TECPAN,17.235,-100.746,0,,,
10094,2014,4.5,PAKISTAN,PAKISTAN:  NAWABSHAH,26.387,68.358,2,70,,
10099,2014,3.6,GERMANY,GERMANY:  HESSE,49.799,8.69,0,,,70
10098,2014,5,ALBANIA,ALBANIA:  BELSH,41.115,19.777,0,,,
10096,2014,6.9,GREECE,"GREECE, TURKEY",40.24,25.33,3,266,,
10097,2014,5.9,CHINA,CHINA:  YUNNAN PROVINCE:  YINGJIANG,25,97.845,0,45,3390,18000
10101,2014,6.9,NEW ZEALAND,NEW ZEALAND:  SSE OF RAOUL ISLAND,-29.977,-177.725,0,,,
10100,2014,7.9,USA,ALASKA:  ALEUTIAN ISLANDS,51.849,178.735,0,,,
10102,2014,6.9,MEXICO,MEXICO; GUATEMALA:  SAN MARCOS,14.728,-92.578,3,33,,50
10105,2014,6.5,JAPAN,JAPAN:  SANRIKU,37.005,142.453,0,3,,
10314,2014,3.9,USA,OKLAHOMA:  HARRAH,35.524,-97.146,0,,,
10107,2014,6.1,USA,ALASKA:  SOUTHEASTERN,58.306,-136.96,0,,,
10104,2014,6.3,MEXICO,MEXICO:  OAXACA,17.682,-95.653,1,1,,
10103,2014,5.5,ALGERIA,ALGERIA:  ALGIERS,36.841,3.301,6,420,,
10106,2014,6.2,CHINA,"CHINA:  YUNNAN:  LUDIAN:   LONGTOUSHAN, ZHAOTONG",27.189,103.409,615,3143,25800,160400
10109,2014,5.5,SOUTH AFRICA,SOUTH AFRICA:  ORKNEY,-26.99,26.705,1,17,13,1433
10113,2014,5.1,ECUADOR,ECUADOR:  QUITO,-0.018,-78.322,2,8,,89
10112,2014,5,CHINA,CHINA:  YUNNAN PROVINCE:  YONGSHAN,28.125,103.546,0,6,,337
10111,2014,6.2,IRAN,IRAN:  ILAM PROVINCE:  ABDANAN,32.663,47.673,0,330,2700,17000
10110,2014,6.1,USA,"CALIFORNIA:  NAPA, VALLEJO",38.216,-122.312,1,257,160,1034
10117,2014,5.2,PHILIPPINES,PHILIPPINES:  BARANGAY LUAYON,6.864,125.233,0,1,15,67
10118,2014,5.1,PERU,PERU:  PARURO PROVINCE,-13.843,-71.695,8,6,106,
10116,2014,6.1,CHINA,CHINA:   YUNNAN PROVINCE:  YONGPING,23.383,100.47,1,323,,
10115,2014,7,CHILE,CHILE: EASTER ISLAND REGION,-32.108,-110.811,0,,,
10193,2014,7.3,EL SALVADOR,EL SALVADOR:  GULF OF FONSECA,12.526,-88.123,1,,5,41
10119,2014,7.1,INDONESIA,INDONESIA:  N. MOLUCCAS ISLANDS,1.893,126.522,0,,,
10121,2014,5.9,CHINA,CHINA:  SICHUAN PROVINCE:  GARZE,30.34,101.737,5,65,30,27400
10122,2014,6.2,JAPAN,"JAPAN:  NAGANO:  HAKUBA, OTARI",36.641,137.888,0,45,50,
10128,2014,5.6,CHINA,CHINA:  YUNNAN PROVINCE:  YONGPING,23.358,100.533,1,15,434,17000
10315,2014,4.9,ALGERIA,ALGERIA:  BLIDA,36.492,3.025,0,,,
10320,2015,5.3,CHINA,CHINA:  SICHUAN PROVINCE:  LESHAN,29.353,103.199,0,11,,2000
10131,2015,6.7,JAPAN,JAPAN:  HONSHU,39.856,142.881,0,,,
10135,2015,6.4,VANUATU,VANUATU ISLANDS,-16.431,168.148,0,,,
10127,2015,4.5,CHINA,CHINA:  YUNNAN PROVINCE,23.01,101.755,0,,,276
10126,2015,3.6,BOSNIA-HERZEGOVINA,BALKANS NW:  BOSNIA-HERZEGOVINA:,44.534,18.934,4,1,,
10125,2015,5.1,CHINA,CHINA:  XINJIANG PROVINCE:  SHAWAN,44.133,85.568,0,,,1728
10124,2015,5.4,PAKISTAN,PAKISTAN:  BATTAGRAM,34.671,73.278,0,5,,2
10321,2015,4.5,PERU,PERU:  AREQUIPA:  CAYLLOMA:  CABANACONDE,-15.693,-71.934,0,,64,500
10335,2015,5.5,CHINA,"CHINA:   YUNNAN PROVINCE:  CANGYUAN, GENGMA",23.5,98.9,0,39,220,15800
10137,2015,4.4,SERBIA,BALKANS NW: SERBIA:  KOSJERIC,44.088,19.861,0,,,100
10336,2015,6.2,COLOMBIA,"COLOMBIA:  ANTIOQUIA, SANTANDER",6.8,-73.01,0,,180,2167
10132,2015,4.6,CHINA,CHINA:  ANHUI PROVINCE:  FUYANG,33.15,115.8,2,13,155,11079
10133,2015,7.5,PAPUA NEW GUINEA,PAPUA NEW GUINEA,-4.729,152.562,0,,,
10136,2015,6.4,TAIWAN,TAIWAN:  TAIPEI,24.203,122.316,1,1,,19
10134,2015,7.8,NEPAL,NEPAL:   KATHMANDU; INDIA; CHINA; BANGLADESH,28.231,84.731,8200,17866,299588,269107
10140,2015,5.7,JAPAN,JAPAN:  HONSHU:  S. OF,31.529,140.213,0,,,
10139,2015,7.5,PAPUA NEW GUINEA,PAPUA NEW GUINEA,-5.462,151.875,0,,,
10141,2015,7.3,NEPAL,NEPAL:   DOLAKHA,27.809,86.066,117,2800,,
10143,2015,7.8,JAPAN,JAPAN:  BONIN ISLANDS [CHICHIJIMA ISLAND],27.839,140.493,0,12,,
10151,2015,6,MALAYSIA,"MALAYSIA:  SABAH:  LAHAD,DATU,KANAK",5.987,116.541,18,,,23
10153,2015,5.3,INDIA,INDIA:  KOKRAJHAR,26.638,90.41,0,2,,
10152,2015,6.4,CHINA,CHINA:  S. XINJIANG:  HOTAN,37.6,78.2,3,263,3000,
10338,2015,6.1,PHILIPPINES,PHILIPPINES:  MINDANAO,10.169,125.891,1,,,
10147,2015,6.7,SOLOMON ISLANDS,SOLOMON ISLANDS,-9.307,158.403,0,,,
10146,2015,7,SOLOMON ISLANDS,SOLOMON ISLANDS,-10.401,165.141,0,,,
10145,2015,5.1,PAKISTAN,PAKISTAN:  ABBOTTABAD,33.856,73.193,3,1,3,
10157,2015,6.9,USA,ALASKA,52.214,-169.399,0,,,
10149,2015,7,INDONESIA,INDONESIA:  PAPUA,-2.629,138.528,1,,1,6
10150,2015,5.9,PANAMA,COLOMBIA-PANAMA:  COLOMBIA:  UNGUIA,8.231,-77.315,0,6,,45
10148,2015,5.8,RWANDA,RWANDA:  BUKAVU,-2.141,28.897,3,30,,
10341,2015,4.5,EL SALVADOR,EL SALVADOR:  ALEGRIA,13.668,-88.478,0,4,,92
10156,2015,8.3,CHILE,CHILE:  CENTRAL,-31.573,-71.674,15,14,2305,10044
10158,2015,6.6,INDONESIA,INDONESIA:  SORONG,-0.59,131.27,0,62,,260
10160,2015,5.8,ARGENTINA,ARGENTINA:  GALPON,-25.442,-64.632,2,30,15,
10159,2015,7.5,AFGHANISTAN,AFGHANISTAN: HINDU KUSH,36.524,70.368,399,1770,29230,79893
10343,2015,6.5,INDONESIA,INDONESIA:  EAST NUSA TENGGARA:  ALOR,-8.338,124.875,0,,,1468
10161,2015,5.3,VENEZUELA,VENEZUELA:  MERIDA,8.477,-71.365,1,,33,83
10162,2015,6.9,CHILE,CHILE:  LA SERENA,-29.439,-72.105,0,,,
10163,2015,6.7,JAPAN,JAPAN:  KYUSYU ISLAND,31.001,128.873,0,,,
10164,2015,6.5,GREECE,"GREECE:  LEFKADA, KEFALONIA, ITHACA",38.67,20.6,2,4,1,
10344,2015,5.6,KYRGYZSTAN,KYRGYZSTAN: OSH,40.376,73.204,0,,200,800
10345,2015,5.1,VENEZUELA,VENEZUELA:  MERIDA,8.48,-71.42,1,3,,6
10166,2015,7.6,PERU,PERU-BRAZIL,-10.77,-71.41,0,,,
10165,2015,7.6,PERU,PERU-BRAZIL,-10.07,-70.98,0,,,
10168,2015,7.2,TAJIKISTAN,TAJIKISTAN,38.211,72.78,2,,500,
10350,2015,6.6,MEXICO,MEXICO:  COCOTITLAN,15.802,-93.633,2,,,
10169,2015,6.3,AFGHANISTAN,AFGHANISTAN; PAKISTAN,36.494,71.126,4,97,,
10170,2016,6.7,INDIA,INDIA:  IMPAHL,24.804,93.651,13,100,,
10171,2016,5.6,INDONESIA,"INDONESIA: MALUKU:  BURU, AMBALAU ISLAND",-3.873,127.229,1,22,,230
10172,2016,7.1,USA,ALASKA:  KENAI,59.658,-153.452,0,,4,
10173,2016,6.3,MOROCCO,MOROCCO:  MELILLA,35.649,-3.682,1,26,,
10174,2016,6.4,TAIWAN,TAIWAN:  TAINAN,22.97,120.46,117,525,,
10175,2016,7.8,INDONESIA,INDONESIA: SUMATRA:,-4.952,94.33,0,,,
10186,2016,6.6,AFGHANISTAN,AFGHANISTAN:  KHYBER PAKHTUNKHWA,36.473,71.131,6,5,,20
10363,2016,6.9,MYANMAR (BURMA),INDIA: ASSAM; BANGLADESH,23.094,94.865,2,170,,4
10177,2016,7,JAPAN,"JAPAN:  KUMAMOTO, OITA",32.791,130.754,50,1500,80000,
10176,2016,7.8,ECUADOR,"ECUADOR:  NEAR WEST COAST: MANABI, ESMERALDAS",0.35,-80.16,663,6274,6998,29672
10179,2016,7,VANUATU,VANUATU ISLANDS,-16.043,167.379,0,,,
10178,2016,5.2,CHINA,CHINA:  TIBET (XIZANG PROVINCE),32.022,95.027,0,60,,
10181,2016,6.9,ECUADOR,ECUADOR:  MANABI PROVINCE,0.495,-79.616,1,162,,32
10364,2016,5.4,ALGERIA,ALGERIA:  MEDEA:  MIHOUB,36.431,3.517,0,28,,
10365,2016,6.6,INDONESIA,INDONESIA:  SUMATRA:  PESISIR SELATAN,-2.097,100.665,1,30,,2663
10185,2016,6.3,INDONESIA,INDONESIA:  MALUKU:  TERNATE ISLAND,1.279,126.371,0,,,
10187,2016,5,TAJIKISTAN,TAJIKISTAN:  RASHT,38.881,70.559,0,,31,
10188,2016,7.7,USA TERRITORY,NORTHERN MARIANA ISLANDS,18.543,145.507,0,,,
10366,2016,4.9,CHINA,CHINA:  GUANGXI PROVINCE,24.134,111.478,0,,,200
10189,2016,5.6,INDONESIA,INDONESIA:  SUMBAWA ISLAND:  WEST NUSA TENGGARA,-8.194,117.814,0,4,,700
10190,2016,7.2,NEW CALEDONIA,NEW CALEDONIA:  LOYALTY ISLANDS,-22.477,173.117,0,,,
10191,2016,5.5,PERU,PERU:  AREQUIPA,-15.64,-71.68,9,68,605,671
10192,2016,7.4,SOUTH GEORGIA AND THE SOUTH SANDWICH ISLANDS,SOUTH SANDWICH ISLANDS,-55.285,-31.877,0,,,
10194,2016,6.2,ITALY,"ITALY:  ACCUMOLI, ARQUATA, AMATRICE",42.704,13.238,299,368,,
10195,2016,6.8,MYANMAR (BURMA),MYANMAR (BURMA): CHAUK,20.923,94.569,4,20,,230
10196,2016,7,NEW ZEALAND,NEW ZEALAND:  GISBORNE,-37.359,179.146,0,,,
10197,2016,5.9,TANZANIA,TANZANIA:  LAKE VICTORIA;  UGANDA: RAKAI,-1.036,31.618,23,252,1172,6281
10198,2016,5.1,MACEDONIA,BALKANS NW:  MACEDONIA,42.008,21.488,0,30,,
10199,2016,5.4,SOUTH KOREA,SOUTH KOREA:  GYEONGJU,35.781,129.216,1,14,,106
10228,2016,4.8,RWANDA,RWANDA:  RISUZI; CONGO:  UKAVU,-2.65,29.06,8,,22,
10373,2016,5.5,NICARAGUA,NICARAGUA:  LEON,12.442,-86.515,1,5,6,487
10229,2016,5.4,PAKISTAN,"PAKISTAN:  MANSEHRA, NARAN",34.905,73.682,1,,,
10200,2016,6.2,JAPAN,JAPAN:  KURAYOSHI,35.374,133.809,0,7,2,160
10201,2016,6.1,ITALY,"ITALY:  VISSO, USSITA",42.956,13.067,1,,,1001
10202,2016,6.6,ITALY,ITALY: NORCIA,42.84,13.11,2,20,,
10204,2016,5,USA,OKLAHOMA:  CUSHING,35.988,-96.805,0,,,50
10206,2016,7.8,NEW ZEALAND,NEW ZEALAND:  AMBERLEY,-42.737,173.054,2,,1,
10209,2016,6.9,JAPAN,JAPAN: NEAR E COAST HONSHU,37.393,141.387,0,15,,
10211,2016,6.9,NICARAGUA,NICARAGUA,11.96,-88.835,0,,,
10386,2016,6.6,CHINA,CHINA:  XINJIANG PROVINCE:  KASHGAR,39.273,73.978,1,,,
10230,2016,5.4,NEPAL,"NEPAL:   MOUNT AMA DABLAM, CHARIKHARKA",27.802,86.532,1,1,2,
10231,2016,4.2,POLAND,POLAND:  RUDNA,51.613,16.157,8,9,,
10379,2016,5.3,COSTA RICA,"COSTA RICA:  PARAISO, TURRIALBA",9.949,-83.807,0,,,60
10232,2016,6.2,PERU,"PERU:  PUNO, LAMPA",-15.44,-70.93,1,17,8,40
10215,2016,6.5,INDONESIA,INDONESIA:  SUMATRA:  ACEH:  PIDIE JAYA,5.283,96.168,104,857,245,18752
10380,2016,6,CHINA,CHINA:  N. XINJIANG:  URUMQI,43.823,86.345,1,,,
10218,2016,7.8,SOLOMON ISLANDS,SOLOMON ISLANDS,-10.681,161.327,1,,191,126
10219,2016,6.9,SOLOMON ISLANDS,SOLOMON ISLANDS,-10.749,161.132,0,,,
10220,2016,7.9,PAPUA NEW GUINEA,PAPUA NEW GUINEA:  NEW BRITAIN NEW IRELAND,-4.505,153.522,0,,,
10221,2016,5.4,ECUADOR,ECUADOR:  ESMERALDAS,0.93,-79.84,3,47,10,70
10224,2016,7.6,CHILE,CHILE,-43.517,-74.391,0,,,
10226,2017,5.7,INDIA,INDIA:  AMBASA;  BANGLADESH,24.015,92.018,3,,,
10225,2017,6.9,FIJI,FIJI ISLANDS,-19.373,176.052,0,,,
10227,2017,5,IRAN,IRAN:  KHONJ,28.2,53.107,4,4,,
10254,2017,5.5,MADAGASCAR,MADAGASCAR: ANTSIRABE,-20.16,46.647,2,,,
10234,2017,5.7,ITALY,ITALY:  FARINDOLA,42.529,13.282,34,,,
10235,2017,7.9,PAPUA NEW GUINEA,PAPUA NEW GUINEA:  BOUGAINVILLE ISLAND,-6.246,155.172,3,,,
10405,2017,5.3,TURKEY,TURKEY:  CANAKKALE,39.599,26.065,0,5,,90
10403,2017,5.5,COLOMBIA,COLOMBIA:  HUILA,3.449,-74.672,0,,,378
10237,2017,6.3,PAKISTAN,PAKISTAN:  PASNI,25.191,63.264,0,,20,
10238,2017,6.5,PHILIPPINES,PHILIPPINES: SURIGAO DEL NORTE,9.907,125.452,8,202,215,3042
10404,2017,5.9,ZAMBIA,ZAMBIA:  KAPUTA,-8.44,30.031,0,5,,
10316,2017,5.7,PHILIPPINES,PHILIPPINES: SURIGAO DEL NORTE,9.831,125.496,1,45,13,
10239,2017,5.1,MYANMAR (BURMA),MYANMAR (BURMA):  THARRAWADDY,17.415,95.999,2,36,,
10240,2017,6.1,IRAN,IRAN:  SEFID SANG,35.8,60.436,2,11,,
10242,2017,5.9,PHILIPPINES,"PHILIPPINES: BATANGAS, CALABARZON",13.725,120.929,0,6,506,2108
10241,2017,4.8,EL SALVADOR,"EL SALVADOR: SAN SALVADOR,SOYAPANGO",13.753,-89.16,1,3,,
10244,2017,6.9,CHILE,CHILE:  VALPARAISO,-33.073,-72.051,0,,,
10245,2017,6.9,PHILIPPINES,PHILIPPINES: SARANGANI,5.516,125.093,0,2,1,
10247,2017,6.2,USA,ALASKA:  SKAGWAY,59.844,-136.695,0,,,
10248,2017,5.4,CHINA,CHINA: XINJIANG: QUZGUN,37.659,75.253,8,23,1500,
10249,2017,5.8,IRAN,IRAN: KHORASAN,37.777,57.195,2,400,,
10255,2017,4.4,TANZANIA,TANZANIA: MWANZA,-3.054,32.893,1,18,,
10251,2017,5,TURKEY,"TURKEY: MANISA: SARUHANLI, GOLMARMARA",38.765,27.775,0,,,35
10250,2017,6.8,INDONESIA,INDONESIA:  SULAWESI:  POSO,-1.289,120.453,0,25,5,348
10252,2017,6.3,GREECE,GREECE: LESBOS,38.932,26.364,1,15,10,250
10253,2017,6.9,GUATEMALA,"GUATEMALA: QUETZALTENANGO, SUCHITEPEQUEZ; MEXICO",14.982,-91.988,5,30,,
10317,2017,3.2,NEPAL,NEPAL:  DHADING,27.64,85.17,1,1,,
10256,2017,6.8,GUATEMALA,"GUATEMALA: ESCUINTLA, SUCHITEPEQUEZ, GUATEMALA",13.753,-90.949,0,4,,53
10257,2017,5.6,MOZAMBIQUE,MOZAMBIQUE,-19.444,34.509,0,4,2,2
10258,2017,6.5,PHILIPPINES,PHILIPPINES: LEYTE,11.114,124.633,3,448,,
10259,2017,7.7,RUSSIA,RUSSIA: BERING ISLAND,54.472,168.815,0,,,
10284,2017,6.4,PERU,PERU:  AREQUIPA,-16.416,-73.636,1,1,,
10260,2017,6.7,TURKEY,"TURKEY: BODRUM, DATCA; GREECE: KOS",36.949,27.458,2,500,,
10318,2017,5.4,CHILE,CHILE:  SANTIAGO,-33.212,-70.626,1,,,
10261,2017,6.5,CHINA,CHINA:  SICHUAN PROVINCE:  ABA,33.193,103.855,25,525,100,72500
10262,2017,6.3,CHINA,CHINA:  XINGJIANG: BORTALA,44.323,82.837,0,32,,
10283,2017,5.6,PERU,PERU: AREQUIPA,-16.299,-73.474,1,,,
10263,2017,4.2,ITALY,ITALY:  ISLAND OF ISCHIA,40.78,13.945,2,42,,
10264,2017,5,PHILIPPINES,PHILIPPINES: LEYTE: ORMOC,11.014,124.736,2,,,56
10266,2017,8.2,MEXICO,"MEXICO: OAXACA, CHIAPAS, TABASCO; GUATEMALA",15.022,-93.899,98,,5000,53152
10267,2017,7.1,MEXICO,"MEXICO: MEXICO CITY, MORELOS, PUEBLA",18.584,-98.399,369,,226,27792
10268,2017,6.1,MEXICO,MEXICO:  OAXACA,16.737,-94.946,5,2,11,
10269,2017,5.7,PHILIPPINES,PHILIPPINES: MINDANAO: LANAO DEL SUR PROVINCE,7.629,124.874,0,,,1759
10272,2017,6.8,NEW CALEDONIA,NEW CALEDONIA:  LOYALTY ISLANDS,-21.66,169.203,0,,,
10319,2017,6.1,INDONESIA,INDONESIA:  MALUKU:  AMBON,-3.745,127.752,1,,,14
10273,2017,6.6,NEW CALEDONIA,NEW CALEDONIA:  LOYALTY ISLANDS,-21.63,168.884,0,,,
10275,2017,7.3,IRAN,IRAN: KERMANSHAH; IRAQ: KURDISTAN,34.886,45.941,630,12900,15500,14500
10276,2017,6.5,COSTA RICA,COSTA RICA: JACO,9.526,-84.505,2,,,
10277,2017,5.4,SOUTH KOREA,SOUTH KOREA: POHANG,36.065,129.27,0,90,,2000
10282,2017,5.9,INDONESIA,INDONESIA: NORTH MALUKU: MOROTAI,2.382,128.144,1,,,294
10281,2017,7,NEW CALEDONIA,NEW CALEDONIA:  LOYALTY ISLANDS,-21.334,168.683,0,,,
10285,2017,5.1,CHINA,CHINA: CHONGQING: WULONG,29.362,108.104,0,8,1,30
10286,2017,6,IRAN,IRAN:  KERMAN,30.765,57.331,0,51,,
10287,2017,6.5,INDONESIA,INDONESIA:  JAVA,-7.734,108.023,4,36,,4825
10288,2017,4.9,IRAN,IRAN:  ALBORZ,35.654,50.949,2,115,,
10289,2017,4,IRAN,"IRAN: ALBORZ, TEHRAN",35.692,50.9,1,57,,
10292,2018,4.9,MONTENEGRO,BALKANS NW:  MONTENEGRO: BERANE,42.658,19.883,0,,,
10290,2018,5,IRAN,IRAN:  KERMANSHAH,34.649,45.799,0,51,,
10293,2018,3.4,NETHERLANDS,THE NETHERLANDS: GRONINGEN,53.2,6.6,0,,,
10291,2018,7.5,HONDURAS,HONDURAS,17.474,-83.519,0,,,7
10294,2018,5.5,IRAN,IRAN: KERMANSHAH,33.764,45.749,0,13,,
10298,2018,7.1,PERU,PERU: YAUCA,-15.776,-74.744,2,139,259,1577
10299,2018,6,INDONESIA,INDONESIA:  JAVA:  BANTEN,-7.196,105.918,1,11,,2760
10300,2018,7.9,USA,ALASKA:  KODIAK ISLAND,56.046,-149.073,0,,,
10301,2018,6.1,AFGHANISTAN,AFGHANISTAN; PAKISTAN:  BALUCHISTAN,36.543,70.816,2,15,,
10304,2018,5.2,ECUADOR,ECUADOR:  PASTAZA,-1.756,-77.694,1,,,
10302,2018,6.4,TAIWAN,TAIWAN:  HUALIEN,24.174,121.653,17,291,4,
10303,2018,7.2,MEXICO,MEXICO:  OAXACA,16.646,-97.653,13,,,1000
10307,2018,7.5,PAPUA NEW GUINEA,"PAPUA NEW GUINEA: S HIGHLANDS, HELA;  INDONESIA",-6.068,142.768,145,300,,
10313,2018,6.1,PAPUA NEW GUINEA,PAPUA NEW GUINEA:  S HIGHLANDS,-6.182,142.492,1,,,
10312,2018,6,PAPUA NEW GUINEA,PAPUA NEW GUINEA:  S HIGHLANDS,-6.307,142.62,11,,,
10311,2018,6.7,PAPUA NEW GUINEA,"PAPUA NEW GUINEA:  S HIGHLANDS, HELA",-6.294,142.607,25,,1,
10322,2018,5.3,IRAN,IRAN:  KERMANSHAH,34.456,45.764,0,54,,
10323,2018,4.9,VENEZUELA,VENEZUELA:  MERIDA,8.346,-71.664,0,,,28
10325,2018,6.3,PAPUA NEW GUINEA,PAPUA NEW GUINEA:  HELA,-5.841,142.49,4,,,
10324,2018,5.6,JAPAN,JAPAN:  SHIMANE PREFECTURE,35.262,132.541,0,8,,429
10326,2018,4.7,ITALY,ITALY:  MUCCIA,43.093,13.046,0,,,
10327,2018,4.4,INDONESIA,INDONESIA:  JAVA:  BANJARNEGARA,-7.21,109.65,3,21,,316
10328,2018,5.2,TURKEY,TURKEY:  ADIYAMAN,37.596,38.514,0,39,,
10329,2018,5.3,IRAN,IRAN:  KOHGILUYEH AND BOYER-AHMAD: SISAKHT,30.715,51.485,0,133,,
10330,2018,2.1,SOUTH AFRICA,SOUTH AFRICA:  WEST RAND,-26.4,27.5,7,6,,
10332,2018,6.9,USA,HAWAIIAN ISLANDS: PUNA DISTRICT,19.37,-155.032,0,1,716,
10331,2018,4.1,POLAND,POLAND:  SILESIAN:  JASTRZEBIE-ZDROJ,50.11,18.71,5,2,,
10334,2018,5.6,EL SALVADOR,"EL SALVADOR:  LA UNION, SAN MIGUEL",13.095,-88.099,0,1,11,298
10333,2018,6.2,AFGHANISTAN,AFGHANISTAN: TAKHAR;  PAKISTAN,36.99,71.369,0,13,,45
10337,2018,5.8,COMOROS,COMOROS:  MAYOTTE,-12.778,45.593,0,3,,
10339,2018,5.1,CHINA,CHINA:  JILIN PROVINCE:  NINGJIANG,45.279,124.557,0,,,10000
10346,2018,5.3,AZERBAIJAN,AZERBAIJAN: SHAKI-ZAQATALA,41.526,46.785,1,31,,
10340,2018,4.9,COLOMBIA,COLOMBIA:  PASTO,1.032,-77.259,2,,1,
10342,2018,5.5,JAPAN,JAPAN:  OSAKA,34.833,135.612,5,380,,470
10348,2018,5.2,INDONESIA,INDONESIA: SUMATRA: SOLOK,-0.965,100.771,1,2,2,10
10347,2018,5.9,IRAN,IRAN:  KERMANSHAH,34.645,46.179,0,287,,951
10349,2018,6.4,INDONESIA,INDONESIA:  LOMBOK ISLAND,-8.274,116.491,17,355,5448,
10351,2018,6.9,INDONESIA,INDONESIA:  LOMBOK ISLAND,-8.287,116.452,560,7733,,83392
10352,2018,5.9,INDONESIA,INDONESIA:  LOMBOK ISLAND,-8.394,116.208,2,24,,
10353,2018,5,CHINA,CHINA:   YUNNAN PROVINCE:  YUXI,24.322,102.941,0,24,,6000
10356,2018,8.2,FIJI,FIJI ISLANDS,-18.178,-178.111,0,,,
10354,2018,6.3,INDONESIA,INDONESIA:  LOMBOK ISLAND,-8.325,116.577,2,1,,1705
10355,2018,6.9,INDONESIA,INDONESIA:  LOMBOK ISLAND,-8.324,116.626,10,24,,151
10357,2018,7.3,VENEZUELA,VENEZUELA:  SUCRE; TRINIDAD,10.855,-62.883,5,,,
10358,2018,6,IRAN,IRAN:  KERMANSHAH,34.663,46.277,2,267,,2600
10359,2018,7.1,NEW CALEDONIA,NEW CALEDONIA:  LOYALTY ISLANDS,-22.066,170.05,0,,,
10360,2018,6.6,JAPAN,JAPAN:  HOKKAIDO,42.671,141.933,44,660,,
10361,2018,7.8,FIJI,FIJI ISLANDS,-18.494,179.332,0,,,
10362,2018,5.5,IRAN,IRAN:  KERMAN,28.342,59.315,1,2,,
10368,2018,5.6,CHINA,CHINA: YUNNAN PROVINCE:  MOJIANG HANI,23.332,101.552,0,28,,29000
10367,2018,5.3,INDIA,INDIA:  WEST BENGAL,26.374,90.165,1,,,
10369,2018,7.5,INDONESIA,INDONESIA:  SULAWESI,-0.178,119.84,2256,4612,5864,69483
10370,2018,5.9,HAITI,HAITI: PORT-DEX-PAIX,20.041,-72.975,18,580,,11497
10371,2018,6,INDONESIA,"INDONESIA:  MADURA ISLAND, JAVA",-7.456,114.453,4,36,,433
10372,2018,6.8,GREECE,"GREECE:  IONIAN SEA:  ZAKYNTHOS, STROFADES",37.506,20.563,0,3,,
10374,2018,5.6,INDONESIA,INDONESIA:  SULAWESI:  MAMASA,-2.916,119.435,7,,,
10375,2018,6.3,IRAN,IRAN: KERMANSHAH; IRAQ: KURDISTAN,34.304,45.74,1,759,,
10377,2018,4.9,AFGHANISTAN,AFGHANISTAN:  HINDU KUSH:  BAGHLAN,35.817,68.682,0,9,,60
10376,2018,7,USA,ALASKA:  ANCHORAGE,61.34,-149.937,0,117,2,1650
10378,2018,7.5,NEW CALEDONIA,NEW CALEDONIA:  LOYALTY ISLANDS,-21.969,169.446,0,,,
10382,2018,5.6,VANUATU,VANUATU ISLANDS: AMBRYM ISLAND,-16.368,168.213,0,,,
10381,2018,5.4,CHINA,CHINA:  SICHUAN:  YIBIN,28.264,104.991,0,17,15,6145
10384,2018,5.5,MOZAMBIQUE,MOZAMBIQUE,-20.644,32.801,0,10,600,
10383,2018,5.1,ITALY,ITALY:  SICILY:  CATANIA,37.555,15.166,0,28,15,
10385,2019,5.2,CHINA,CHINA:  SICHUAN:  YIBIN,28.261,104.984,0,774,,691
10389,2019,5.6,IRAN,IRAN:  KERMANSHAH: SARPOL-E ZAHAB,34.121,45.681,0,75,,
10387,2019,3.8,POLAND,POLAND:  RUDNA,51.52,16.09,1,6,,
10388,2019,6.7,CHILE,"CHILE:  COQUIMBO, LA SERENA",-30.074,-71.423,2,,,260
10390,2019,3.4,POLAND,POLAND:  RYDULTOWY,50.08,18.39,1,8,,
10392,2019,6.6,MEXICO,MEXICO:  CHIAPAS; GUATEMALA:  SAN MARCOS,14.763,-92.298,0,4,,
10391,2019,4.1,INDIA,INDIA:  MAHARASHTRA:  PALGHAR,19.6,72.8,1,,,
10394,2019,5.1,AZERBAIJAN,AZERBAIJAN:  SHEMAKHA (SEMACHA),40.892,48.602,0,3,,3000
10393,2019,7.5,ECUADOR,"ECUADOR: AZUAY, MANABI, MORONA SANT.; PERU",-2.199,-77.023,1,9,5,75
10395,2019,4.9,CHINA,CHINA:  SICHUAN PROVINCE: RONGXIAN,29.498,104.632,2,12,9,10911
10398,2019,5.4,INDONESIA,INDONESIA: SUMATRA: SOLOK,-1.301,101.601,0,48,,343
10396,2019,7,PERU,PERU:  AREQUIPA,-14.684,-70.127,1,1,,
10399,2019,5.5,INDONESIA,INDONESIA:  LOMBOK ISLAND,-8.418,116.52,6,,843,3613
10400,2019,5.5,TANZANIA,"TANZANIA:  SONGWE, MBEYA",-7.878,32.085,1,,4,
10402,2019,6.8,INDONESIA,INDONESIA:  SULAWESI ISLAND: LUWUK,-1.852,122.553,1,,,
10407,2019,6.1,TAIWAN,TAIWAN:  HUALIEN,23.989,121.693,1,16,,
10406,2019,6.1,PHILIPPINES,PHILIPPINES:  PAMPANGA PROVINCE,14.924,120.497,18,183,1046,3329
10409,2019,7.2,PAPUA NEW GUINEA,PAPUA NEW GUINEA:  MOROBE: WAMPAR,-6.977,146.44,0,,130,
10408,2019,7.5,PAPUA NEW GUINEA,"PAPUA NEW GUINEA:  RABAUL, DUKE OF YORK IS",-4.081,152.569,0,,,
10410,2019,4.8,CHINA,CHINA:  JILIN PROVINCE:  SONGYUAN,45.205,124.611,0,,,167
10411,2019,3.2,NETHERLANDS,THE NETHERLANDS: GRONINGEN,53.394,6.586,0,,,840
10412,2019,8,PERU,"PERU:  LA LIBERTAD, CAJAMARCA; ECUADOR",-5.796,-75.298,2,30,,
10420,2019,5.2,ALBANIA,ALBANIA:  KORCE,40.501,20.722,0,4,,100
10414,2019,6.4,CHILE,CHILE:  COQUIMBO,-30.056,-72.082,0,,,
10415,2019,7.2,NEW ZEALAND,"KERMADEC ISLANDS:  S OF, RAOUL",-30.805,-178.095,0,,,
10417,2019,5.8,CHINA,CHINA:  SICHUAN:  YIBIN,28.405,104.957,13,200,,12700
10418,2019,6.4,JAPAN,JAPAN:  NIIGATA PREFECTURE,38.646,139.472,0,28,,144
10421,2019,3.1,POLAND,POLAND:  KATOWICE,50.287,18.997,3,6,,
10422,2019,6.4,USA,CALIFORNIA:  RIDGECREST,35.705,-117.506,1,,,
10423,2019,7.1,USA,CALIFORNIA:  RIDGECREST,35.766,-117.605,0,,,50
10424,2019,5.7,IRAN,IRAN:  MASJED-E SOLEYMAN,31.775,49.542,1,128,,
10427,2019,5.8,PHILIPPINES,PHILIPPINES: MINDANAO: SURIGAO DEL SUR PROVINCE,9.334,126.04,0,25,,
10426,2019,7.3,INDONESIA,INDONESIA:  MOLUCCA ISLANDS:  N,-0.529,128.093,5,,1000,
10425,2019,5.3,GREECE,GREECE:  ATHENS,38.115,23.505,0,4,,
